{"last_updated":1588152291,"ttl":60,"data":{"stations":[{"station_id":"2351602","name":"WESER-KURIER | Pressehaus","short_name":"2910","lat":53.076721914667345,"lon":8.803943395614624,"region_id":"379","capacity":5},{"station_id":"7872668","name":"Am Dobben","short_name":"2925","lat":53.078194,"lon":8.82325,"region_id":"379"},{"station_id":"7872701","name":"Am Speicher XI","short_name":"2926","lat":53.097556,"lon":8.770056,"region_id":"379"},{"station_id":"7872739","name":"Bahnhof Blumenthal","short_name":"2927","lat":53.182889,"lon":8.580278,"region_id":"379"},{"station_id":"7872765","name":"Bahnhof Bremen-Farge","short_name":"2928","lat":53.205417,"lon":8.517,"region_id":"379"},{"station_id":"7872789","name":"Bahnhof Mahndorf","short_name":"2929","lat":53.040528,"lon":8.944194,"region_id":"379"},{"station_id":"7872920","name":"Bahnhof Sebaldsbrück","short_name":"2930","lat":53.0625,"lon":8.887222,"region_id":"379"},{"station_id":"7872954","name":"Berliner Freiheit","short_name":"2931","lat":53.079667,"lon":8.892528,"region_id":"379"},{"station_id":"7872979","name":"Europahafen / Hansator","short_name":"2932","lat":53.08686883633147,"lon":8.783054351806639,"region_id":"379"},{"station_id":"7873007","name":"Domsheide","short_name":"2933","lat":53.07459169184832,"lon":8.810182213783262,"region_id":"379"},{"station_id":"7873026","name":"Findorffmarkt","short_name":"2934","lat":53.09160152979527,"lon":8.812183141708374,"region_id":"379"},{"station_id":"7873056","name":"Flughafen Bremen","short_name":"2911","lat":53.053111,"lon":8.786056,"region_id":"379"},{"station_id":"7873118","name":"Gottfried-Menken-Str.","short_name":"2936","lat":53.060528,"lon":8.799861,"region_id":"379"},{"station_id":"7873131","name":"Haltestelle Alfred-Faust-Str.","short_name":"2937","lat":53.03386,"lon":8.83076,"region_id":"379"},{"station_id":"7873146","name":"Haltestelle Am Wall","short_name":"2938","lat":53.080333,"lon":8.803083,"region_id":"379"},{"station_id":"7873169","name":"Haltestelle Borgfelder Allee","short_name":"2939","lat":53.127139,"lon":8.898528,"region_id":"379"},{"station_id":"7873189","name":"Anne Conway / Wohnheim","short_name":"2940","lat":53.10489796678492,"lon":8.860269784927368,"region_id":"379"},{"station_id":"7873210","name":"Haltestelle Gastfeldstr.","short_name":"2941","lat":53.066556,"lon":8.793556,"region_id":"379"},{"station_id":"7873233","name":"Haltestelle Huckelriede","short_name":"2942","lat":53.051800416343205,"lon":8.820728659629822,"region_id":"379"},{"station_id":"7873255","name":"Haltestelle Lilienthal-Falkenberg","short_name":"2943","lat":53.15816,"lon":8.94525,"region_id":"379"},{"station_id":"7873274","name":"Haltestelle Wartburgstraße","short_name":"2944","lat":53.09375,"lon":8.7885,"region_id":"379"},{"station_id":"7873297","name":"Haltestelle Weserwehr","short_name":"2945","lat":53.063444,"lon":8.867889,"region_id":"379"},{"station_id":"7873316","name":"Hauptbahnhof / Übersee Museum","short_name":"2946","lat":53.083050729527926,"lon":8.811646699905396,"region_id":"379"},{"station_id":"7873338","name":"Bahnhof Vegesack","short_name":"2947","lat":53.16923478992533,"lon":8.628666400909424,"region_id":"379"},{"station_id":"7873367","name":"Humboldtstr. / Horner Straße","short_name":"2948","lat":53.074278,"lon":8.831167,"region_id":"379"},{"station_id":"7873421","name":"Jacobs University","short_name":"2949","lat":53.167639,"lon":8.648306,"region_id":"379"},{"station_id":"7873436","name":"Karl-Marx-Str. / Ohserstr.","short_name":"2950","lat":53.0415,"lon":8.850111,"region_id":"379"},{"station_id":"7873462","name":"Konsul-Smidt-Str.","short_name":"2951","lat":53.089444,"lon":8.777833,"region_id":"379"},{"station_id":"7873483","name":"Langemarckstr. / Erlenstr.","short_name":"2952","lat":53.068565,"lon":8.785476,"region_id":"379"},{"station_id":"7873594","name":"Mühlenfeldstr. / Rockwinkeler Heerstr.","short_name":"2954","lat":53.090176,"lon":8.935391,"region_id":"379"},{"station_id":"7873621","name":"Neustadtswall ","short_name":"2955","lat":53.071972,"lon":8.794222,"region_id":"379"},{"station_id":"7873641","name":"Oberneulander Heerstr. / Rockwinkeler Heerstr.","short_name":"2956","lat":53.100167,"lon":8.902889,"region_id":"379"},{"station_id":"7873660","name":"Präsident-Kennedy-Platz","short_name":"2957","lat":53.07734388117915,"lon":8.814758062362671,"region_id":"379"},{"station_id":"7873706","name":"Pusdorfer Marktplatz","short_name":"2959","lat":53.08125,"lon":8.772694,"region_id":"379"},{"station_id":"7873766","name":"Hochschule Bremen Werderstrasse","short_name":"2960","lat":53.06994737632387,"lon":8.808073997497559,"region_id":"379"},{"station_id":"7873781","name":"Schwachhauser Heerstr. / Kirchbachstr.  ","short_name":"2961","lat":53.085,"lon":8.849472,"region_id":"379"},{"station_id":"7873805","name":"Theater am Leibnizplatz","short_name":"2962","lat":53.069444,"lon":8.799639,"region_id":"379"},{"station_id":"7873825","name":"Uni Bremen","short_name":"2963","lat":53.107139,"lon":8.852417,"region_id":"379"},{"station_id":"7873840","name":"Universum Bremen","short_name":"2912","lat":53.106418034025026,"lon":8.84574294090271,"region_id":"379","capacity":6},{"station_id":"7873874","name":"Wachmannstr. / Hartwigstr.","short_name":"2965","lat":53.086139,"lon":8.831583,"region_id":"379"},{"station_id":"7873893","name":"Woltmershauser Str.","short_name":"2966","lat":53.07851366949974,"lon":8.779175877571106,"region_id":"379"},{"station_id":"8028225","name":"BSAG-Zentrum","short_name":"2958","lat":53.061139,"lon":8.786306,"region_id":"379","capacity":5},{"station_id":"8172362","name":"Kunsthalle Bremen","short_name":"2967","lat":53.07283522613672,"lon":8.814103603363037,"region_id":"379"},{"station_id":"8322249","name":"Weser-Stadion ","short_name":"2968","lat":53.067800701770445,"lon":8.834928274154661,"region_id":"379"},{"station_id":"8322336","name":"Martinianleger","short_name":"2969","lat":53.074143719326536,"lon":8.8045334815979,"region_id":"379"},{"station_id":"8322400","name":"Landmark-Tower","short_name":"2970","lat":53.0969747127721,"lon":8.760695457458496,"region_id":"379"},{"station_id":"8322444","name":"Tabak Quartier","short_name":"2971","lat":53.07741155574982,"lon":8.77284049987793,"region_id":"379"},{"station_id":"8615035","name":"Wümme-Zeitung","short_name":"2953","lat":53.145798,"lon":8.909947,"region_id":"379"},{"station_id":"8638942","name":"Föhrenstraße ","short_name":"2972","lat":53.064904,"lon":8.879091,"region_id":"379"},{"station_id":"8638959","name":"Admiralstrasse","short_name":"2973","lat":53.0926028710585,"lon":8.803163808552199,"region_id":"379"},{"station_id":"8638975","name":"Sielwallfähre","short_name":"2974","lat":53.068642,"lon":8.822093,"region_id":"379"},{"station_id":"8740854","name":"P und R Sielhof","short_name":"2975","lat":53.048501613563865,"lon":8.820669651031494,"region_id":"379"},{"station_id":"8806546","name":"Park Hotel","short_name":"2976","lat":53.08904999933958,"lon":8.8222736120224,"region_id":"379","capacity":8},{"station_id":"8806578","name":"GOP / Steigenberger","short_name":"2977","lat":53.08203573276256,"lon":8.789475560188293,"region_id":"379","capacity":8},{"station_id":"8903474","name":"Bahnhof Dreye","short_name":"2978","lat":53.019181,"lon":8.871278,"region_id":"379"},{"station_id":"8903502","name":"Bahnhof Kirchweyhe","short_name":"2979","lat":52.983452,"lon":8.847211,"region_id":"379"},{"station_id":"8903533","name":"Freibad Weyhe","short_name":"2980","lat":52.979305,"lon":8.862633,"region_id":"379"},{"station_id":"8903564","name":"Gewerbegebiet Dreye-West III","short_name":"2981","lat":53.018578,"lon":8.863607,"region_id":"379"},{"station_id":"8903622","name":"Henry-Wetjen-Platz","short_name":"2982","lat":52.988059,"lon":8.816312,"region_id":"379"},{"station_id":"8903645","name":"Marktplatz Kirchweyhe","short_name":"2983","lat":52.982181,"lon":8.850017,"region_id":"379"},{"station_id":"8903658","name":"Rathaus Weyhe","short_name":"2984","lat":52.983784,"lon":8.835151,"region_id":"379"},{"station_id":"8926613","name":"KAEFER Isoliertechnik","short_name":"2990","lat":53.107500083055875,"lon":8.762133121490477,"region_id":"379"},{"station_id":"10084718","name":"Uni Bremen TAB","short_name":"2997","lat":53.109129546001896,"lon":8.860495090484617,"region_id":"379"},{"station_id":"10278649","name":"GEWOBA | Kurt-Schumacher 11","short_name":"2985","lat":53.078923,"lon":8.884911,"region_id":"379","capacity":6},{"station_id":"10278671","name":"GEWOBA | Heinrich-Schulz 57","short_name":"2986","lat":53.083369723568474,"lon":8.899649977684021,"region_id":"379","capacity":6},{"station_id":"10278696","name":"GEWOBA | Wilh.-Liebknecht 1","short_name":"2987","lat":53.085032320903416,"lon":8.879125714302063,"region_id":"379","capacity":6},{"station_id":"10278716","name":"GEWOBA | Ludwig-Beck 2a","short_name":"2988","lat":53.077782152703,"lon":8.904043436050415,"region_id":"379","capacity":6},{"station_id":"10278729","name":"GEWOBA | Heideplatz 1","short_name":"2989","lat":53.074731,"lon":8.876003,"region_id":"379","capacity":6},{"station_id":"10278804","name":"Waller Straße","short_name":"2991","lat":53.1060556,"lon":8.77913888888889,"region_id":"379"},{"station_id":"10551452","name":"Caroline Henschel Strasse","short_name":"2992","lat":53.102933393526165,"lon":8.859170079231262,"region_id":"379"},{"station_id":"11119973","name":"hanseWasser Bremen GmbH","short_name":"2913","lat":53.09955154087005,"lon":8.759247064590454,"region_id":"379","capacity":4},{"station_id":"12732840","name":"Twiedelftsweg","short_name":"2935","lat":53.028968044865486,"lon":8.838157653808594,"region_id":"379"},{"station_id":"12886693","name":"Messe Bremen","short_name":"2914","lat":53.0857894902667,"lon":8.817214965820312,"region_id":"379"},{"station_id":"13019673","name":"Hemmstrasse","short_name":"2964","lat":53.094455714132344,"lon":8.807998895645142,"region_id":"379"},{"station_id":"14879993","name":"Bremen 1860","short_name":"2915","lat":53.09421089310231,"lon":8.844412565231323,"region_id":"379","capacity":5},{"station_id":"15098720","name":"Meierei im Bürgerpark","short_name":"2916","lat":53.097828304174755,"lon":8.8309907913208,"region_id":"379"},{"station_id":"15767205","name":"Bahnhof Walle","short_name":"2918","lat":53.1031588409168,"lon":8.78605842590332,"region_id":"379"},{"station_id":"15859125","name":"Haltestelle Gustavstrasse","short_name":"2919","lat":53.098118199289175,"lon":8.788483142852783,"region_id":"379"},{"station_id":"16521413","name":"Irgendwo Festival","short_name":"2920","lat":53.0578781942103,"lon":8.786745071411133,"region_id":"379","capacity":6},{"station_id":"17322575","name":"Mondelez Deutschland Services GmbH","short_name":"2921","lat":53.09128259676156,"lon":8.775758743286133,"region_id":"379","capacity":6},{"station_id":"17322791","name":"Die Sparkasse Bremen Mühlenviertel","short_name":"2922","lat":53.101909203360336,"lon":8.880112767219543,"region_id":"379","capacity":6},{"station_id":"17322858","name":"Am Waller Strandpark Waller Sand","short_name":"2923","lat":53.10305577939912,"lon":8.753035068511963,"region_id":"379","capacity":6},{"station_id":"29359657","name":"IKEA Brinkum","short_name":"2924","lat":53.02719681322195,"lon":8.803090453147888,"region_id":"379","capacity":5}]}}